<markers>
<marker id="1" name="Arsenal Keskus" address="Erika 14, 10416 Tallinn" lat="59.4514661" lng="24.7164407" type="keskus"/>
<marker id="2" name="Pirita Keskus" address="Merivälja tee 24, 11911 Tallinn" lat="59.4685681" lng="24.8347945" type="keskus"/>
<marker id="3" name="Viru Keskus" address="Viru väljak 4/6, 10111 Tallinn" lat="59.4362337" lng="24.7558099" type="keskus"/>
<marker id="4" name="Solaris keskus" address="Estonia puiestee 9, 11314 Tallinn" lat="59.4332929" lng="24.751258" type="keskus"/>
<marker id="5" name="Rahva Raamat" address="Pärnu maantee 10, 10140 Tallinn" lat="59.4348438" lng="24.7476485" type="keskus"/>
<marker id="6" name="Hortes" address="Seljaku 4b, Laagri, 76401 Harju maakond" lat="59.3483255" lng="24.6273491" type="keskus"/>
<marker id="7" name="Westman toidupood" address="Pärnu maantee 19, 10141 Tallinn" lat="59.4318118" lng="24.7458422" type="keskus"/>
<marker id="8" name="Balti Jaama Turg" address="Kopli 1, 10412 Tallinn" lat="59.4410374" lng="24.7362439" type="keskus"/>
<marker id="9" name="Keskturg" address="Keldrimäe 9, 10113 Tallinn" lat="59.4297524" lng="24.766924" type="keskus"/>
<marker id="10" name="Tallinna Kalaturg" address="Kalaranna, 10415 Tallinn" lat="59.4463921" lng="24.7490906" type="keskus"/>
<marker id="11" name="Postimaja Keskus" address="Narva maantee 1, 10111 Tallinn" lat="59.4375359" lng="24.7564872" type="keskus"/>
<marker id="12" name="" address="" lat="" lng="" type="keskus"/>


</markers>
